{
  "type": "FeatureCollection",
  "metadata": {
    "description": "US Data Centers: Existing 500MW+, announced projects, and anticipated growth to 150GW by 2035",
    "sources": ["Baxtel", "DataCenterMap", "Company announcements", "Utility filings", "Growth projections", "State economic development agencies"],
    "lastUpdated": "2026-01",
    "projectedCapacity2035": "150+ GW",
    "currentCapacity2024": "25 GW",
    "featureCount": 216,
    "notes": "Anticipated facilities represent projected growth based on utility IRPs, interconnection queues, and AI demand forecasts. Includes major projects in PA (~$90-110B pipeline), MI (Stargate 1.4GW+), NC (85% of Duke load growth), GA (8.2GW over 6 years), and emerging markets."
  },
  "features": [
    {"type": "Feature", "properties": {"name": "Digital Realty Ashburn Campus", "operator": "Digital Realty", "capacity": 650, "region": "nova", "status": "operational", "year": 2010}, "geometry": {"type": "Point", "coordinates": [-77.4875, 39.0437]}},
    {"type": "Feature", "properties": {"name": "QTS Ashburn", "operator": "QTS", "capacity": 550, "region": "nova", "status": "operational", "year": 2015}, "geometry": {"type": "Point", "coordinates": [-77.5012, 39.0521]}},
    {"type": "Feature", "properties": {"name": "Equinix Ashburn Campus", "operator": "Equinix", "capacity": 720, "region": "nova", "status": "operational", "year": 2012}, "geometry": {"type": "Point", "coordinates": [-77.4623, 39.0312]}},
    {"type": "Feature", "properties": {"name": "Amazon AWS US-East-1", "operator": "Amazon", "capacity": 1200, "region": "nova", "status": "operational", "year": 2014}, "geometry": {"type": "Point", "coordinates": [-77.4502, 39.0289]}},
    {"type": "Feature", "properties": {"name": "Microsoft Azure Virginia", "operator": "Microsoft", "capacity": 850, "region": "nova", "status": "operational", "year": 2016}, "geometry": {"type": "Point", "coordinates": [-77.5234, 39.0678]}},
    {"type": "Feature", "properties": {"name": "Google Virginia Campus", "operator": "Google", "capacity": 600, "region": "nova", "status": "operational", "year": 2018}, "geometry": {"type": "Point", "coordinates": [-77.4156, 39.0156]}},
    {"type": "Feature", "properties": {"name": "Meta Virginia", "operator": "Meta", "capacity": 550, "region": "nova", "status": "operational", "year": 2020}, "geometry": {"type": "Point", "coordinates": [-77.5401, 39.0812]}},
    {"type": "Feature", "properties": {"name": "CoreSite Reston", "operator": "CoreSite", "capacity": 480, "region": "nova", "status": "operational", "year": 2017}, "geometry": {"type": "Point", "coordinates": [-77.3589, 38.9534]}},
    {"type": "Feature", "properties": {"name": "Vantage Ashburn", "operator": "Vantage", "capacity": 520, "region": "nova", "status": "operational", "year": 2019}, "geometry": {"type": "Point", "coordinates": [-77.4812, 39.0623]}},
    {"type": "Feature", "properties": {"name": "Loudoun Expansion Phase 4", "operator": "Multiple", "capacity": 800, "region": "nova", "status": "construction", "year": 2026}, "geometry": {"type": "Point", "coordinates": [-77.5678, 39.0923]}},
    {"type": "Feature", "properties": {"name": "Prince William DC Campus", "operator": "Amazon", "capacity": 1500, "region": "nova", "status": "announced", "year": 2028}, "geometry": {"type": "Point", "coordinates": [-77.4823, 38.8234]}},
    {"type": "Feature", "properties": {"name": "Dominion NOVA Hyperscale 1", "operator": "Multiple", "capacity": 2000, "region": "nova", "status": "anticipated", "year": 2029}, "geometry": {"type": "Point", "coordinates": [-77.6123, 39.1234]}},
    {"type": "Feature", "properties": {"name": "Dominion NOVA Hyperscale 2", "operator": "Multiple", "capacity": 2200, "region": "nova", "status": "anticipated", "year": 2030}, "geometry": {"type": "Point", "coordinates": [-77.3534, 39.0423]}},
    {"type": "Feature", "properties": {"name": "PJM East Expansion 2031", "operator": "Multiple", "capacity": 2500, "region": "nova", "status": "anticipated", "year": 2031}, "geometry": {"type": "Point", "coordinates": [-77.3234, 38.9823]}},
    {"type": "Feature", "properties": {"name": "PJM East Expansion 2032", "operator": "Multiple", "capacity": 2800, "region": "nova", "status": "anticipated", "year": 2032}, "geometry": {"type": "Point", "coordinates": [-77.2512, 38.8734]}},
    {"type": "Feature", "properties": {"name": "Virginia AI Mega Campus", "operator": "Multiple", "capacity": 3000, "region": "nova", "status": "anticipated", "year": 2033}, "geometry": {"type": "Point", "coordinates": [-77.7234, 39.1512]}},
    {"type": "Feature", "properties": {"name": "Loudoun 2034 Expansion", "operator": "Multiple", "capacity": 2500, "region": "nova", "status": "anticipated", "year": 2034}, "geometry": {"type": "Point", "coordinates": [-77.5923, 39.0134]}},
    {"type": "Feature", "properties": {"name": "NOVA 2035 AI Complex", "operator": "Multiple", "capacity": 2800, "region": "nova", "status": "anticipated", "year": 2035}, "geometry": {"type": "Point", "coordinates": [-77.4312, 38.9234]}},
    {"type": "Feature", "properties": {"name": "AWS Columbus", "operator": "Amazon", "capacity": 600, "region": "ohio", "status": "operational", "year": 2021}, "geometry": {"type": "Point", "coordinates": [-82.9912, 40.0934]}},
    {"type": "Feature", "properties": {"name": "Google Columbus", "operator": "Google", "capacity": 550, "region": "ohio", "status": "operational", "year": 2022}, "geometry": {"type": "Point", "coordinates": [-82.8567, 40.1234]}},
    {"type": "Feature", "properties": {"name": "Meta New Albany", "operator": "Meta", "capacity": 750, "region": "ohio", "status": "construction", "year": 2026}, "geometry": {"type": "Point", "coordinates": [-82.7845, 40.0812]}},
    {"type": "Feature", "properties": {"name": "QTS Columbus Expansion", "operator": "QTS", "capacity": 500, "region": "ohio", "status": "announced", "year": 2027}, "geometry": {"type": "Point", "coordinates": [-83.0234, 40.0567]}},
    {"type": "Feature", "properties": {"name": "Intel Ohio AI Campus", "operator": "Intel", "capacity": 800, "region": "ohio", "status": "announced", "year": 2028}, "geometry": {"type": "Point", "coordinates": [-82.7123, 40.1567]}},
    {"type": "Feature", "properties": {"name": "AEP Ohio Hyperscale 1", "operator": "Multiple", "capacity": 1200, "region": "ohio", "status": "anticipated", "year": 2029}, "geometry": {"type": "Point", "coordinates": [-82.6534, 40.2123]}},
    {"type": "Feature", "properties": {"name": "AEP Ohio Hyperscale 2", "operator": "Multiple", "capacity": 1500, "region": "ohio", "status": "anticipated", "year": 2030}, "geometry": {"type": "Point", "coordinates": [-82.9123, 40.1823]}},
    {"type": "Feature", "properties": {"name": "PJM West Corridor 1", "operator": "Multiple", "capacity": 2000, "region": "ohio", "status": "anticipated", "year": 2031}, "geometry": {"type": "Point", "coordinates": [-83.1534, 40.0312]}},
    {"type": "Feature", "properties": {"name": "PJM West Corridor 2", "operator": "Multiple", "capacity": 2200, "region": "ohio", "status": "anticipated", "year": 2032}, "geometry": {"type": "Point", "coordinates": [-82.5234, 39.9623]}},
    {"type": "Feature", "properties": {"name": "Ohio AI Mega Campus 1", "operator": "Multiple", "capacity": 2500, "region": "ohio", "status": "anticipated", "year": 2033}, "geometry": {"type": "Point", "coordinates": [-83.0012, 40.2534]}},
    {"type": "Feature", "properties": {"name": "Ohio AI Mega Campus 2", "operator": "Multiple", "capacity": 2800, "region": "ohio", "status": "anticipated", "year": 2034}, "geometry": {"type": "Point", "coordinates": [-82.7823, 40.0123]}},
    {"type": "Feature", "properties": {"name": "Ohio 2035 Expansion", "operator": "Multiple", "capacity": 3000, "region": "ohio", "status": "anticipated", "year": 2035}, "geometry": {"type": "Point", "coordinates": [-82.8534, 40.3234]}},
    {"type": "Feature", "properties": {"name": "Project Clydesdale", "operator": "Undisclosed", "capacity": 1000, "region": "oklahoma", "status": "construction", "year": 2026}, "geometry": {"type": "Point", "coordinates": [-95.9012, 36.2567]}},
    {"type": "Feature", "properties": {"name": "Project Anthem", "operator": "Undisclosed", "capacity": 800, "region": "oklahoma", "status": "announced", "year": 2027}, "geometry": {"type": "Point", "coordinates": [-95.8534, 36.1823]}},
    {"type": "Feature", "properties": {"name": "Google Stillwater Phase 1-2", "operator": "Google", "capacity": 600, "region": "oklahoma", "status": "announced", "year": 2027}, "geometry": {"type": "Point", "coordinates": [-97.0645, 36.1156]}},
    {"type": "Feature", "properties": {"name": "Google Stillwater Phase 3-6", "operator": "Google", "capacity": 1200, "region": "oklahoma", "status": "announced", "year": 2029}, "geometry": {"type": "Point", "coordinates": [-97.0823, 36.1234]}},
    {"type": "Feature", "properties": {"name": "MAIP Tulsa Campus", "operator": "Microsoft", "capacity": 1500, "region": "oklahoma", "status": "announced", "year": 2028}, "geometry": {"type": "Point", "coordinates": [-95.9923, 36.1512]}},
    {"type": "Feature", "properties": {"name": "OGE Territory AI Campus", "operator": "Multiple", "capacity": 700, "region": "oklahoma", "status": "announced", "year": 2029}, "geometry": {"type": "Point", "coordinates": [-97.5234, 35.4823]}},
    {"type": "Feature", "properties": {"name": "Tulsa North Industrial", "operator": "Undisclosed", "capacity": 500, "region": "oklahoma", "status": "announced", "year": 2028}, "geometry": {"type": "Point", "coordinates": [-95.9456, 36.3012]}},
    {"type": "Feature", "properties": {"name": "PSO Tulsa Hyperscale 1", "operator": "Multiple", "capacity": 1000, "region": "oklahoma", "status": "anticipated", "year": 2029}, "geometry": {"type": "Point", "coordinates": [-96.0512, 36.0823]}},
    {"type": "Feature", "properties": {"name": "PSO Tulsa Hyperscale 2", "operator": "Multiple", "capacity": 1200, "region": "oklahoma", "status": "anticipated", "year": 2030}, "geometry": {"type": "Point", "coordinates": [-95.8234, 36.2123]}},
    {"type": "Feature", "properties": {"name": "SPP Oklahoma Mega Campus 1", "operator": "Multiple", "capacity": 1500, "region": "oklahoma", "status": "anticipated", "year": 2030}, "geometry": {"type": "Point", "coordinates": [-96.0123, 35.9567]}},
    {"type": "Feature", "properties": {"name": "SPP Oklahoma Mega Campus 2", "operator": "Multiple", "capacity": 1800, "region": "oklahoma", "status": "anticipated", "year": 2031}, "geometry": {"type": "Point", "coordinates": [-95.7823, 36.1234]}},
    {"type": "Feature", "properties": {"name": "SPP Oklahoma Mega Campus 3", "operator": "Multiple", "capacity": 2000, "region": "oklahoma", "status": "anticipated", "year": 2032}, "geometry": {"type": "Point", "coordinates": [-96.2123, 36.0534]}},
    {"type": "Feature", "properties": {"name": "OKC Metro AI Hub 1", "operator": "Multiple", "capacity": 1000, "region": "oklahoma", "status": "anticipated", "year": 2030}, "geometry": {"type": "Point", "coordinates": [-97.4812, 35.5123]}},
    {"type": "Feature", "properties": {"name": "OKC Metro AI Hub 2", "operator": "Multiple", "capacity": 1200, "region": "oklahoma", "status": "anticipated", "year": 2032}, "geometry": {"type": "Point", "coordinates": [-97.5623, 35.4534]}},
    {"type": "Feature", "properties": {"name": "Enid Wind-Powered DC 1", "operator": "Undisclosed", "capacity": 800, "region": "oklahoma", "status": "anticipated", "year": 2030}, "geometry": {"type": "Point", "coordinates": [-97.8712, 36.3923]}},
    {"type": "Feature", "properties": {"name": "Enid Wind-Powered DC 2", "operator": "Undisclosed", "capacity": 1000, "region": "oklahoma", "status": "anticipated", "year": 2032}, "geometry": {"type": "Point", "coordinates": [-97.9123, 36.4234]}},
    {"type": "Feature", "properties": {"name": "Oklahoma AI Corridor 2033", "operator": "Multiple", "capacity": 2000, "region": "oklahoma", "status": "anticipated", "year": 2033}, "geometry": {"type": "Point", "coordinates": [-95.9534, 36.0123]}},
    {"type": "Feature", "properties": {"name": "Oklahoma AI Corridor 2034", "operator": "Multiple", "capacity": 2200, "region": "oklahoma", "status": "anticipated", "year": 2034}, "geometry": {"type": "Point", "coordinates": [-96.1234, 35.8534]}},
    {"type": "Feature", "properties": {"name": "Oklahoma AI Corridor 2035", "operator": "Multiple", "capacity": 2500, "region": "oklahoma", "status": "anticipated", "year": 2035}, "geometry": {"type": "Point", "coordinates": [-96.0823, 36.1823]}},
    {"type": "Feature", "properties": {"name": "Digital Realty Dallas", "operator": "Digital Realty", "capacity": 580, "region": "texas", "status": "operational", "year": 2015}, "geometry": {"type": "Point", "coordinates": [-96.8023, 32.7823]}},
    {"type": "Feature", "properties": {"name": "Stream Data Centers Irving", "operator": "Stream", "capacity": 520, "region": "texas", "status": "operational", "year": 2018}, "geometry": {"type": "Point", "coordinates": [-96.9456, 32.8512]}},
    {"type": "Feature", "properties": {"name": "QTS Irving Mega Campus", "operator": "QTS", "capacity": 700, "region": "texas", "status": "operational", "year": 2019}, "geometry": {"type": "Point", "coordinates": [-96.9234, 32.8234]}},
    {"type": "Feature", "properties": {"name": "IREN Childress", "operator": "IREN", "capacity": 750, "region": "texas", "status": "operational", "year": 2024}, "geometry": {"type": "Point", "coordinates": [-100.2012, 34.4267]}},
    {"type": "Feature", "properties": {"name": "Microsoft San Antonio", "operator": "Microsoft", "capacity": 600, "region": "texas", "status": "operational", "year": 2020}, "geometry": {"type": "Point", "coordinates": [-98.4934, 29.4267]}},
    {"type": "Feature", "properties": {"name": "CyrusOne Dallas", "operator": "CyrusOne", "capacity": 540, "region": "texas", "status": "operational", "year": 2017}, "geometry": {"type": "Point", "coordinates": [-96.7534, 32.9123]}},
    {"type": "Feature", "properties": {"name": "Flexential Dallas", "operator": "Flexential", "capacity": 480, "region": "texas", "status": "operational", "year": 2019}, "geometry": {"type": "Point", "coordinates": [-96.8812, 32.7534]}},
    {"type": "Feature", "properties": {"name": "AWS Texas Expansion", "operator": "Amazon", "capacity": 900, "region": "texas", "status": "construction", "year": 2026}, "geometry": {"type": "Point", "coordinates": [-96.7823, 32.9123]}},
    {"type": "Feature", "properties": {"name": "Meta Fort Worth", "operator": "Meta", "capacity": 800, "region": "texas", "status": "announced", "year": 2027}, "geometry": {"type": "Point", "coordinates": [-97.3312, 32.7534]}},
    {"type": "Feature", "properties": {"name": "ERCOT AI Corridor North", "operator": "Multiple", "capacity": 1200, "region": "texas", "status": "announced", "year": 2028}, "geometry": {"type": "Point", "coordinates": [-96.5634, 33.0823]}},
    {"type": "Feature", "properties": {"name": "Google Texas Expansion", "operator": "Google", "capacity": 1000, "region": "texas", "status": "announced", "year": 2028}, "geometry": {"type": "Point", "coordinates": [-97.1234, 32.6534]}},
    {"type": "Feature", "properties": {"name": "ERCOT West Expansion 1", "operator": "Multiple", "capacity": 1500, "region": "texas", "status": "anticipated", "year": 2029}, "geometry": {"type": "Point", "coordinates": [-101.8234, 31.9967]}},
    {"type": "Feature", "properties": {"name": "ERCOT West Expansion 2", "operator": "Multiple", "capacity": 1800, "region": "texas", "status": "anticipated", "year": 2030}, "geometry": {"type": "Point", "coordinates": [-100.5123, 32.4534]}},
    {"type": "Feature", "properties": {"name": "ERCOT West Expansion 3", "operator": "Multiple", "capacity": 2000, "region": "texas", "status": "anticipated", "year": 2031}, "geometry": {"type": "Point", "coordinates": [-101.2534, 32.0823]}},
    {"type": "Feature", "properties": {"name": "Austin AI Campus 1", "operator": "Multiple", "capacity": 1200, "region": "texas", "status": "anticipated", "year": 2029}, "geometry": {"type": "Point", "coordinates": [-97.7423, 30.2812]}},
    {"type": "Feature", "properties": {"name": "Austin AI Campus 2", "operator": "Multiple", "capacity": 1500, "region": "texas", "status": "anticipated", "year": 2031}, "geometry": {"type": "Point", "coordinates": [-97.6812, 30.3234]}},
    {"type": "Feature", "properties": {"name": "Houston Energy Campus 1", "operator": "Multiple", "capacity": 1400, "region": "texas", "status": "anticipated", "year": 2030}, "geometry": {"type": "Point", "coordinates": [-95.3634, 29.7612]}},
    {"type": "Feature", "properties": {"name": "Houston Energy Campus 2", "operator": "Multiple", "capacity": 1600, "region": "texas", "status": "anticipated", "year": 2032}, "geometry": {"type": "Point", "coordinates": [-95.2123, 29.8234]}},
    {"type": "Feature", "properties": {"name": "Permian Basin DC 1", "operator": "Multiple", "capacity": 1000, "region": "texas", "status": "anticipated", "year": 2030}, "geometry": {"type": "Point", "coordinates": [-102.0712, 31.8423]}},
    {"type": "Feature", "properties": {"name": "Permian Basin DC 2", "operator": "Multiple", "capacity": 1200, "region": "texas", "status": "anticipated", "year": 2032}, "geometry": {"type": "Point", "coordinates": [-101.8234, 31.9534]}},
    {"type": "Feature", "properties": {"name": "DFW AI Mega Complex 1", "operator": "Multiple", "capacity": 2500, "region": "texas", "status": "anticipated", "year": 2032}, "geometry": {"type": "Point", "coordinates": [-96.6234, 32.8534]}},
    {"type": "Feature", "properties": {"name": "DFW AI Mega Complex 2", "operator": "Multiple", "capacity": 2800, "region": "texas", "status": "anticipated", "year": 2033}, "geometry": {"type": "Point", "coordinates": [-97.0534, 32.9234]}},
    {"type": "Feature", "properties": {"name": "Texas AI Corridor 2034", "operator": "Multiple", "capacity": 3000, "region": "texas", "status": "anticipated", "year": 2034}, "geometry": {"type": "Point", "coordinates": [-96.8712, 32.7123]}},
    {"type": "Feature", "properties": {"name": "Texas AI Corridor 2035", "operator": "Multiple", "capacity": 3500, "region": "texas", "status": "anticipated", "year": 2035}, "geometry": {"type": "Point", "coordinates": [-97.2534, 32.8923]}},
    {"type": "Feature", "properties": {"name": "CyrusOne Chandler", "operator": "CyrusOne", "capacity": 550, "region": "phoenix", "status": "operational", "year": 2019}, "geometry": {"type": "Point", "coordinates": [-111.8412, 33.3062]}},
    {"type": "Feature", "properties": {"name": "Microsoft Phoenix", "operator": "Microsoft", "capacity": 650, "region": "phoenix", "status": "operational", "year": 2021}, "geometry": {"type": "Point", "coordinates": [-111.9234, 33.4512]}},
    {"type": "Feature", "properties": {"name": "Google Mesa", "operator": "Google", "capacity": 700, "region": "phoenix", "status": "construction", "year": 2026}, "geometry": {"type": "Point", "coordinates": [-111.7923, 33.4156]}},
    {"type": "Feature", "properties": {"name": "AWS Phoenix West", "operator": "Amazon", "capacity": 800, "region": "phoenix", "status": "announced", "year": 2028}, "geometry": {"type": "Point", "coordinates": [-112.0823, 33.5234]}},
    {"type": "Feature", "properties": {"name": "Arizona AI Corridor 1", "operator": "Multiple", "capacity": 1400, "region": "phoenix", "status": "anticipated", "year": 2029}, "geometry": {"type": "Point", "coordinates": [-111.6534, 33.5823]}},
    {"type": "Feature", "properties": {"name": "Arizona AI Corridor 2", "operator": "Multiple", "capacity": 1600, "region": "phoenix", "status": "anticipated", "year": 2030}, "geometry": {"type": "Point", "coordinates": [-111.9823, 33.3534]}},
    {"type": "Feature", "properties": {"name": "Arizona AI Corridor 3", "operator": "Multiple", "capacity": 1800, "region": "phoenix", "status": "anticipated", "year": 2031}, "geometry": {"type": "Point", "coordinates": [-112.1234, 33.4123]}},
    {"type": "Feature", "properties": {"name": "Phoenix AI Mega Campus 1", "operator": "Multiple", "capacity": 2200, "region": "phoenix", "status": "anticipated", "year": 2032}, "geometry": {"type": "Point", "coordinates": [-111.7534, 33.5234]}},
    {"type": "Feature", "properties": {"name": "Phoenix AI Mega Campus 2", "operator": "Multiple", "capacity": 2500, "region": "phoenix", "status": "anticipated", "year": 2034}, "geometry": {"type": "Point", "coordinates": [-111.8923, 33.3923]}},
    {"type": "Feature", "properties": {"name": "Digital Realty Chicago", "operator": "Digital Realty", "capacity": 520, "region": "chicago", "status": "operational", "year": 2016}, "geometry": {"type": "Point", "coordinates": [-87.8234, 41.8823]}},
    {"type": "Feature", "properties": {"name": "QTS Chicago", "operator": "QTS", "capacity": 480, "region": "chicago", "status": "operational", "year": 2018}, "geometry": {"type": "Point", "coordinates": [-87.9012, 41.9234]}},
    {"type": "Feature", "properties": {"name": "Microsoft Chicago Expansion", "operator": "Microsoft", "capacity": 700, "region": "chicago", "status": "construction", "year": 2026}, "geometry": {"type": "Point", "coordinates": [-87.8512, 41.9512]}},
    {"type": "Feature", "properties": {"name": "MISO North Campus 1", "operator": "Multiple", "capacity": 1200, "region": "chicago", "status": "anticipated", "year": 2029}, "geometry": {"type": "Point", "coordinates": [-88.0534, 42.0123]}},
    {"type": "Feature", "properties": {"name": "MISO North Campus 2", "operator": "Multiple", "capacity": 1400, "region": "chicago", "status": "anticipated", "year": 2030}, "geometry": {"type": "Point", "coordinates": [-87.7823, 41.9823]}},
    {"type": "Feature", "properties": {"name": "MISO North Campus 3", "operator": "Multiple", "capacity": 1600, "region": "chicago", "status": "anticipated", "year": 2031}, "geometry": {"type": "Point", "coordinates": [-87.9234, 42.0534]}},
    {"type": "Feature", "properties": {"name": "Chicago AI Complex 2032", "operator": "Multiple", "capacity": 2000, "region": "chicago", "status": "anticipated", "year": 2032}, "geometry": {"type": "Point", "coordinates": [-88.1234, 41.9123]}},
    {"type": "Feature", "properties": {"name": "Chicago AI Complex 2034", "operator": "Multiple", "capacity": 2400, "region": "chicago", "status": "anticipated", "year": 2034}, "geometry": {"type": "Point", "coordinates": [-87.7012, 42.0234]}},
    {"type": "Feature", "properties": {"name": "Equinix Silicon Valley", "operator": "Equinix", "capacity": 600, "region": "siliconvalley", "status": "operational", "year": 2012}, "geometry": {"type": "Point", "coordinates": [-121.9812, 37.3923]}},
    {"type": "Feature", "properties": {"name": "Digital Realty Santa Clara", "operator": "Digital Realty", "capacity": 550, "region": "siliconvalley", "status": "operational", "year": 2014}, "geometry": {"type": "Point", "coordinates": [-121.9512, 37.3512]}},
    {"type": "Feature", "properties": {"name": "CoreSite Santa Clara", "operator": "CoreSite", "capacity": 480, "region": "siliconvalley", "status": "operational", "year": 2016}, "geometry": {"type": "Point", "coordinates": [-121.9234, 37.3734]}},
    {"type": "Feature", "properties": {"name": "CAISO Bay Area Expansion 1", "operator": "Multiple", "capacity": 1000, "region": "siliconvalley", "status": "anticipated", "year": 2030}, "geometry": {"type": "Point", "coordinates": [-122.0312, 37.4123]}},
    {"type": "Feature", "properties": {"name": "CAISO Bay Area Expansion 2", "operator": "Multiple", "capacity": 1200, "region": "siliconvalley", "status": "anticipated", "year": 2032}, "geometry": {"type": "Point", "coordinates": [-121.8534, 37.4534]}},
    {"type": "Feature", "properties": {"name": "Switch TAHOE RENO 1", "operator": "Switch", "capacity": 800, "region": "nevada", "status": "operational", "year": 2017}, "geometry": {"type": "Point", "coordinates": [-119.7823, 39.5234]}},
    {"type": "Feature", "properties": {"name": "Switch Citadel Campus", "operator": "Switch", "capacity": 1500, "region": "nevada", "status": "construction", "year": 2027}, "geometry": {"type": "Point", "coordinates": [-119.8123, 39.5012]}},
    {"type": "Feature", "properties": {"name": "Nevada Green AI Campus 1", "operator": "Multiple", "capacity": 1200, "region": "nevada", "status": "anticipated", "year": 2029}, "geometry": {"type": "Point", "coordinates": [-119.6234, 39.4512]}},
    {"type": "Feature", "properties": {"name": "Nevada Green AI Campus 2", "operator": "Multiple", "capacity": 1400, "region": "nevada", "status": "anticipated", "year": 2031}, "geometry": {"type": "Point", "coordinates": [-119.5123, 39.5823]}},
    {"type": "Feature", "properties": {"name": "Las Vegas DC Hub 1", "operator": "Multiple", "capacity": 1000, "region": "nevada", "status": "anticipated", "year": 2030}, "geometry": {"type": "Point", "coordinates": [-115.1423, 36.1712]}},
    {"type": "Feature", "properties": {"name": "Las Vegas DC Hub 2", "operator": "Multiple", "capacity": 1200, "region": "nevada", "status": "anticipated", "year": 2032}, "geometry": {"type": "Point", "coordinates": [-115.0534, 36.0923]}},
    {"type": "Feature", "properties": {"name": "Nevada AI Corridor 2033", "operator": "Multiple", "capacity": 1600, "region": "nevada", "status": "anticipated", "year": 2033}, "geometry": {"type": "Point", "coordinates": [-119.7012, 39.4234]}},
    {"type": "Feature", "properties": {"name": "QTS Atlanta Metro", "operator": "QTS", "capacity": 500, "region": "atlanta", "status": "operational", "year": 2018}, "geometry": {"type": "Point", "coordinates": [-84.3923, 33.7534]}},
    {"type": "Feature", "properties": {"name": "Microsoft Georgia", "operator": "Microsoft", "capacity": 600, "region": "atlanta", "status": "construction", "year": 2026}, "geometry": {"type": "Point", "coordinates": [-84.2812, 33.8234]}},
    {"type": "Feature", "properties": {"name": "Georgia AI Hub 1", "operator": "Multiple", "capacity": 1000, "region": "atlanta", "status": "anticipated", "year": 2029}, "geometry": {"type": "Point", "coordinates": [-84.1534, 33.9123]}},
    {"type": "Feature", "properties": {"name": "Georgia AI Hub 2", "operator": "Multiple", "capacity": 1200, "region": "atlanta", "status": "anticipated", "year": 2030}, "geometry": {"type": "Point", "coordinates": [-84.4312, 33.6823]}},
    {"type": "Feature", "properties": {"name": "Georgia AI Hub 3", "operator": "Multiple", "capacity": 1400, "region": "atlanta", "status": "anticipated", "year": 2032}, "geometry": {"type": "Point", "coordinates": [-84.2534, 33.7923]}},
    {"type": "Feature", "properties": {"name": "Atlanta AI Mega Campus", "operator": "Multiple", "capacity": 1800, "region": "atlanta", "status": "anticipated", "year": 2034}, "geometry": {"type": "Point", "coordinates": [-84.3234, 33.8534]}},
    {"type": "Feature", "properties": {"name": "Stack Infrastructure Portland", "operator": "Stack", "capacity": 520, "region": "portland", "status": "operational", "year": 2020}, "geometry": {"type": "Point", "coordinates": [-122.6534, 45.5234]}},
    {"type": "Feature", "properties": {"name": "AWS Oregon", "operator": "Amazon", "capacity": 700, "region": "portland", "status": "operational", "year": 2018}, "geometry": {"type": "Point", "coordinates": [-121.1823, 44.0567]}},
    {"type": "Feature", "properties": {"name": "Google The Dalles", "operator": "Google", "capacity": 550, "region": "portland", "status": "operational", "year": 2016}, "geometry": {"type": "Point", "coordinates": [-121.1712, 45.6023]}},
    {"type": "Feature", "properties": {"name": "Pacific Northwest Expansion 1", "operator": "Multiple", "capacity": 1200, "region": "portland", "status": "anticipated", "year": 2030}, "geometry": {"type": "Point", "coordinates": [-122.4234, 45.6567]}},
    {"type": "Feature", "properties": {"name": "Pacific Northwest Expansion 2", "operator": "Multiple", "capacity": 1400, "region": "portland", "status": "anticipated", "year": 2032}, "geometry": {"type": "Point", "coordinates": [-121.3423, 44.5123]}},
    {"type": "Feature", "properties": {"name": "PNW AI Campus 2034", "operator": "Multiple", "capacity": 1600, "region": "portland", "status": "anticipated", "year": 2034}, "geometry": {"type": "Point", "coordinates": [-121.2012, 45.5534]}},
    {"type": "Feature", "properties": {"name": "Microsoft Quincy", "operator": "Microsoft", "capacity": 650, "region": "seattle", "status": "operational", "year": 2015}, "geometry": {"type": "Point", "coordinates": [-119.8523, 47.2312]}},
    {"type": "Feature", "properties": {"name": "AWS Seattle Region", "operator": "Amazon", "capacity": 580, "region": "seattle", "status": "operational", "year": 2017}, "geometry": {"type": "Point", "coordinates": [-122.3312, 47.6062]}},
    {"type": "Feature", "properties": {"name": "Washington State AI Expansion 1", "operator": "Multiple", "capacity": 1200, "region": "seattle", "status": "anticipated", "year": 2030}, "geometry": {"type": "Point", "coordinates": [-120.5234, 47.0823]}},
    {"type": "Feature", "properties": {"name": "Washington State AI Expansion 2", "operator": "Multiple", "capacity": 1400, "region": "seattle", "status": "anticipated", "year": 2032}, "geometry": {"type": "Point", "coordinates": [-119.9534, 47.1534]}},
    {"type": "Feature", "properties": {"name": "Washington AI Campus 2034", "operator": "Multiple", "capacity": 1600, "region": "seattle", "status": "anticipated", "year": 2034}, "geometry": {"type": "Point", "coordinates": [-120.1234, 47.2923]}},
    {"type": "Feature", "properties": {"name": "North Carolina Research Triangle", "operator": "Multiple", "capacity": 600, "region": "southeast", "status": "operational", "year": 2019}, "geometry": {"type": "Point", "coordinates": [-78.8986, 35.9940]}},
    {"type": "Feature", "properties": {"name": "Duke Energy NC Expansion 1", "operator": "Multiple", "capacity": 1200, "region": "southeast", "status": "anticipated", "year": 2029}, "geometry": {"type": "Point", "coordinates": [-79.0534, 35.8723]}},
    {"type": "Feature", "properties": {"name": "Duke Energy NC Expansion 2", "operator": "Multiple", "capacity": 1400, "region": "southeast", "status": "anticipated", "year": 2031}, "geometry": {"type": "Point", "coordinates": [-78.7234, 35.9534]}},
    {"type": "Feature", "properties": {"name": "NC AI Campus 2033", "operator": "Multiple", "capacity": 1600, "region": "southeast", "status": "anticipated", "year": 2033}, "geometry": {"type": "Point", "coordinates": [-78.9123, 36.0534]}},
    {"type": "Feature", "properties": {"name": "Tennessee Valley AI Hub 1", "operator": "Multiple", "capacity": 1000, "region": "southeast", "status": "anticipated", "year": 2030}, "geometry": {"type": "Point", "coordinates": [-86.7823, 36.1627]}},
    {"type": "Feature", "properties": {"name": "Tennessee Valley AI Hub 2", "operator": "Multiple", "capacity": 1200, "region": "southeast", "status": "anticipated", "year": 2032}, "geometry": {"type": "Point", "coordinates": [-86.5234, 36.0823]}},
    {"type": "Feature", "properties": {"name": "TVA AI Campus 2034", "operator": "Multiple", "capacity": 1400, "region": "southeast", "status": "anticipated", "year": 2034}, "geometry": {"type": "Point", "coordinates": [-86.8534, 36.2534]}},
    {"type": "Feature", "properties": {"name": "Indiana MISO Campus 1", "operator": "Multiple", "capacity": 900, "region": "midwest", "status": "anticipated", "year": 2029}, "geometry": {"type": "Point", "coordinates": [-86.1581, 39.7684]}},
    {"type": "Feature", "properties": {"name": "Indiana MISO Campus 2", "operator": "Multiple", "capacity": 1100, "region": "midwest", "status": "anticipated", "year": 2031}, "geometry": {"type": "Point", "coordinates": [-86.0234, 39.8234]}},
    {"type": "Feature", "properties": {"name": "Wisconsin Green DC 1", "operator": "Multiple", "capacity": 800, "region": "midwest", "status": "anticipated", "year": 2030}, "geometry": {"type": "Point", "coordinates": [-89.4012, 43.0731]}},
    {"type": "Feature", "properties": {"name": "Wisconsin Green DC 2", "operator": "Multiple", "capacity": 1000, "region": "midwest", "status": "anticipated", "year": 2032}, "geometry": {"type": "Point", "coordinates": [-89.2534, 43.1234]}},
    {"type": "Feature", "properties": {"name": "Minnesota Wind-Powered DC 1", "operator": "Multiple", "capacity": 1000, "region": "midwest", "status": "anticipated", "year": 2030}, "geometry": {"type": "Point", "coordinates": [-93.2650, 44.9778]}},
    {"type": "Feature", "properties": {"name": "Minnesota Wind-Powered DC 2", "operator": "Multiple", "capacity": 1200, "region": "midwest", "status": "anticipated", "year": 2032}, "geometry": {"type": "Point", "coordinates": [-93.4234, 44.8534]}},
    {"type": "Feature", "properties": {"name": "Iowa Data Hub 1", "operator": "Multiple", "capacity": 700, "region": "midwest", "status": "anticipated", "year": 2029}, "geometry": {"type": "Point", "coordinates": [-93.6091, 41.5868]}},
    {"type": "Feature", "properties": {"name": "Iowa Data Hub 2", "operator": "Multiple", "capacity": 900, "region": "midwest", "status": "anticipated", "year": 2031}, "geometry": {"type": "Point", "coordinates": [-93.4534, 41.6534]}},
    {"type": "Feature", "properties": {"name": "Missouri Gateway DC 1", "operator": "Multiple", "capacity": 800, "region": "midwest", "status": "anticipated", "year": 2030}, "geometry": {"type": "Point", "coordinates": [-90.1994, 38.6270]}},
    {"type": "Feature", "properties": {"name": "Missouri Gateway DC 2", "operator": "Multiple", "capacity": 1000, "region": "midwest", "status": "anticipated", "year": 2032}, "geometry": {"type": "Point", "coordinates": [-90.3234, 38.7123]}},
    {"type": "Feature", "properties": {"name": "Kansas SPP Hub 1", "operator": "Multiple", "capacity": 900, "region": "midwest", "status": "anticipated", "year": 2030}, "geometry": {"type": "Point", "coordinates": [-97.3301, 37.6872]}},
    {"type": "Feature", "properties": {"name": "Kansas SPP Hub 2", "operator": "Multiple", "capacity": 1100, "region": "midwest", "status": "anticipated", "year": 2032}, "geometry": {"type": "Point", "coordinates": [-97.4534, 37.7534]}},
    {"type": "Feature", "properties": {"name": "Nebraska Wind DC 1", "operator": "Multiple", "capacity": 700, "region": "midwest", "status": "anticipated", "year": 2030}, "geometry": {"type": "Point", "coordinates": [-96.7898, 40.8136]}},
    {"type": "Feature", "properties": {"name": "Nebraska Wind DC 2", "operator": "Multiple", "capacity": 900, "region": "midwest", "status": "anticipated", "year": 2033}, "geometry": {"type": "Point", "coordinates": [-96.6234, 40.9234]}},
    {"type": "Feature", "properties": {"name": "Colorado Front Range DC 1", "operator": "Multiple", "capacity": 1000, "region": "mountain", "status": "anticipated", "year": 2029}, "geometry": {"type": "Point", "coordinates": [-104.9903, 39.7392]}},
    {"type": "Feature", "properties": {"name": "Colorado Front Range DC 2", "operator": "Multiple", "capacity": 1200, "region": "mountain", "status": "anticipated", "year": 2031}, "geometry": {"type": "Point", "coordinates": [-104.8234, 39.8123]}},
    {"type": "Feature", "properties": {"name": "Colorado AI Campus 2033", "operator": "Multiple", "capacity": 1400, "region": "mountain", "status": "anticipated", "year": 2033}, "geometry": {"type": "Point", "coordinates": [-105.0534, 39.6534]}},
    {"type": "Feature", "properties": {"name": "Utah Solar DC 1", "operator": "Multiple", "capacity": 800, "region": "mountain", "status": "anticipated", "year": 2030}, "geometry": {"type": "Point", "coordinates": [-111.8910, 40.7608]}},
    {"type": "Feature", "properties": {"name": "Utah Solar DC 2", "operator": "Multiple", "capacity": 1000, "region": "mountain", "status": "anticipated", "year": 2032}, "geometry": {"type": "Point", "coordinates": [-111.7234, 40.8234]}},
    {"type": "Feature", "properties": {"name": "New Mexico Solar Hub 1", "operator": "Multiple", "capacity": 900, "region": "southwest", "status": "anticipated", "year": 2030}, "geometry": {"type": "Point", "coordinates": [-106.6504, 35.0844]}},
    {"type": "Feature", "properties": {"name": "New Mexico Solar Hub 2", "operator": "Multiple", "capacity": 1100, "region": "southwest", "status": "anticipated", "year": 2032}, "geometry": {"type": "Point", "coordinates": [-106.5234, 35.1534]}},
    {"type": "Feature", "properties": {"name": "New Mexico AI Campus 2034", "operator": "Multiple", "capacity": 1300, "region": "southwest", "status": "anticipated", "year": 2034}, "geometry": {"type": "Point", "coordinates": [-106.7534, 34.9534]}},

    {"type": "Feature", "properties": {"name": "Amazon AI Campus Salem Township", "operator": "Amazon", "capacity": 1500, "region": "pennsylvania", "status": "announced", "year": 2028}, "geometry": {"type": "Point", "coordinates": [-79.9012, 40.5234]}},
    {"type": "Feature", "properties": {"name": "Amazon AI Campus Falls Township", "operator": "Amazon", "capacity": 1200, "region": "pennsylvania", "status": "announced", "year": 2028}, "geometry": {"type": "Point", "coordinates": [-74.8534, 40.1823]}},
    {"type": "Feature", "properties": {"name": "PAX Digital Carlisle", "operator": "PAX", "capacity": 1350, "region": "pennsylvania", "status": "announced", "year": 2029}, "geometry": {"type": "Point", "coordinates": [-77.1889, 40.2015]}},
    {"type": "Feature", "properties": {"name": "CoreWeave Lancaster County", "operator": "CoreWeave", "capacity": 800, "region": "pennsylvania", "status": "construction", "year": 2026}, "geometry": {"type": "Point", "coordinates": [-76.3055, 40.0379]}},
    {"type": "Feature", "properties": {"name": "Homer City Energy Campus", "operator": "Multiple", "capacity": 2000, "region": "pennsylvania", "status": "announced", "year": 2030}, "geometry": {"type": "Point", "coordinates": [-79.1612, 40.5423]}},
    {"type": "Feature", "properties": {"name": "Air Products Lehigh Campus", "operator": "Air Products", "capacity": 1000, "region": "pennsylvania", "status": "announced", "year": 2029}, "geometry": {"type": "Point", "coordinates": [-75.4712, 40.6023]}},
    {"type": "Feature", "properties": {"name": "PA AI Corridor Expansion 1", "operator": "Multiple", "capacity": 1800, "region": "pennsylvania", "status": "anticipated", "year": 2031}, "geometry": {"type": "Point", "coordinates": [-76.8823, 40.2734]}},
    {"type": "Feature", "properties": {"name": "PA AI Corridor Expansion 2", "operator": "Multiple", "capacity": 2200, "region": "pennsylvania", "status": "anticipated", "year": 2033}, "geometry": {"type": "Point", "coordinates": [-75.9534, 40.3423]}},
    {"type": "Feature", "properties": {"name": "PJM East PA Campus 2035", "operator": "Multiple", "capacity": 2500, "region": "pennsylvania", "status": "anticipated", "year": 2035}, "geometry": {"type": "Point", "coordinates": [-76.4234, 40.1234]}},

    {"type": "Feature", "properties": {"name": "Microsoft Cheyenne Expansion", "operator": "Microsoft", "capacity": 250, "region": "wyoming", "status": "construction", "year": 2026}, "geometry": {"type": "Point", "coordinates": [-104.8202, 41.1400]}},
    {"type": "Feature", "properties": {"name": "Microsoft Bison Park", "operator": "Microsoft", "capacity": 500, "region": "wyoming", "status": "announced", "year": 2028}, "geometry": {"type": "Point", "coordinates": [-104.7912, 41.1623]}},
    {"type": "Feature", "properties": {"name": "Meta Cheyenne", "operator": "Meta", "capacity": 600, "region": "wyoming", "status": "anticipated", "year": 2030}, "geometry": {"type": "Point", "coordinates": [-104.8534, 41.1234]}},
    {"type": "Feature", "properties": {"name": "Crusoe Energy Wyoming", "operator": "Crusoe", "capacity": 400, "region": "wyoming", "status": "anticipated", "year": 2029}, "geometry": {"type": "Point", "coordinates": [-105.5912, 42.8534]}},
    {"type": "Feature", "properties": {"name": "Wyoming Wind-Powered DC 1", "operator": "Multiple", "capacity": 800, "region": "wyoming", "status": "anticipated", "year": 2031}, "geometry": {"type": "Point", "coordinates": [-105.0234, 41.3123]}},
    {"type": "Feature", "properties": {"name": "Wyoming Wind-Powered DC 2", "operator": "Multiple", "capacity": 1000, "region": "wyoming", "status": "anticipated", "year": 2033}, "geometry": {"type": "Point", "coordinates": [-104.6823, 41.0534]}},

    {"type": "Feature", "properties": {"name": "Meta Los Lunas AI Expansion", "operator": "Meta", "capacity": 800, "region": "newmexico", "status": "construction", "year": 2026}, "geometry": {"type": "Point", "coordinates": [-106.7334, 34.8062]}},
    {"type": "Feature", "properties": {"name": "Meta Los Lunas Phase 3", "operator": "Meta", "capacity": 1200, "region": "newmexico", "status": "announced", "year": 2028}, "geometry": {"type": "Point", "coordinates": [-106.7612, 34.7923]}},

    {"type": "Feature", "properties": {"name": "Amazon AWS Catawba County", "operator": "Amazon", "capacity": 1200, "region": "northcarolina", "status": "construction", "year": 2026}, "geometry": {"type": "Point", "coordinates": [-81.2301, 35.6650]}},
    {"type": "Feature", "properties": {"name": "Microsoft Catawba Site 1", "operator": "Microsoft", "capacity": 600, "region": "northcarolina", "status": "construction", "year": 2026}, "geometry": {"type": "Point", "coordinates": [-81.1823, 35.6823]}},
    {"type": "Feature", "properties": {"name": "Microsoft Catawba Site 2", "operator": "Microsoft", "capacity": 600, "region": "northcarolina", "status": "construction", "year": 2027}, "geometry": {"type": "Point", "coordinates": [-81.2534, 35.6423]}},
    {"type": "Feature", "properties": {"name": "Microsoft Catawba Site 3", "operator": "Microsoft", "capacity": 600, "region": "northcarolina", "status": "announced", "year": 2028}, "geometry": {"type": "Point", "coordinates": [-81.2012, 35.7012]}},
    {"type": "Feature", "properties": {"name": "Microsoft Catawba Site 4", "operator": "Microsoft", "capacity": 600, "region": "northcarolina", "status": "announced", "year": 2029}, "geometry": {"type": "Point", "coordinates": [-81.1534, 35.6234]}},
    {"type": "Feature", "properties": {"name": "Apple Maiden Expansion", "operator": "Apple", "capacity": 800, "region": "northcarolina", "status": "announced", "year": 2028}, "geometry": {"type": "Point", "coordinates": [-81.2123, 35.5734]}},
    {"type": "Feature", "properties": {"name": "PowerHouse Charlotte", "operator": "PowerHouse", "capacity": 350, "region": "northcarolina", "status": "construction", "year": 2026}, "geometry": {"type": "Point", "coordinates": [-80.8431, 35.2271]}},
    {"type": "Feature", "properties": {"name": "Digital Realty Charlotte", "operator": "Digital Realty", "capacity": 400, "region": "northcarolina", "status": "announced", "year": 2028}, "geometry": {"type": "Point", "coordinates": [-80.8923, 35.1934]}},
    {"type": "Feature", "properties": {"name": "Google Lenoir", "operator": "Google", "capacity": 600, "region": "northcarolina", "status": "announced", "year": 2028}, "geometry": {"type": "Point", "coordinates": [-81.5390, 35.9140]}},
    {"type": "Feature", "properties": {"name": "Energy Storage Solutions Tarboro", "operator": "ESS", "capacity": 900, "region": "northcarolina", "status": "announced", "year": 2029}, "geometry": {"type": "Point", "coordinates": [-77.5358, 35.8968]}},
    {"type": "Feature", "properties": {"name": "Duke Energy NC Hyperscale 1", "operator": "Multiple", "capacity": 1500, "region": "northcarolina", "status": "anticipated", "year": 2030}, "geometry": {"type": "Point", "coordinates": [-80.4234, 35.5123]}},
    {"type": "Feature", "properties": {"name": "Duke Energy NC Hyperscale 2", "operator": "Multiple", "capacity": 1800, "region": "northcarolina", "status": "anticipated", "year": 2032}, "geometry": {"type": "Point", "coordinates": [-81.0534, 35.8234]}},
    {"type": "Feature", "properties": {"name": "NC AI Corridor 2034", "operator": "Multiple", "capacity": 2000, "region": "northcarolina", "status": "anticipated", "year": 2034}, "geometry": {"type": "Point", "coordinates": [-79.7923, 36.0734]}},

    {"type": "Feature", "properties": {"name": "DC BLOX North Augusta", "operator": "DC BLOX", "capacity": 50, "region": "southcarolina", "status": "operational", "year": 2022}, "geometry": {"type": "Point", "coordinates": [-81.9651, 33.5018]}},
    {"type": "Feature", "properties": {"name": "DC BLOX Greenville", "operator": "DC BLOX", "capacity": 80, "region": "southcarolina", "status": "operational", "year": 2023}, "geometry": {"type": "Point", "coordinates": [-82.3940, 34.8526]}},
    {"type": "Feature", "properties": {"name": "SC Charleston Tech Hub", "operator": "Multiple", "capacity": 500, "region": "southcarolina", "status": "anticipated", "year": 2029}, "geometry": {"type": "Point", "coordinates": [-79.9311, 32.7765]}},
    {"type": "Feature", "properties": {"name": "SC Columbia Campus", "operator": "Multiple", "capacity": 600, "region": "southcarolina", "status": "anticipated", "year": 2031}, "geometry": {"type": "Point", "coordinates": [-81.0348, 34.0007]}},
    {"type": "Feature", "properties": {"name": "SC AI Corridor 2033", "operator": "Multiple", "capacity": 800, "region": "southcarolina", "status": "anticipated", "year": 2033}, "geometry": {"type": "Point", "coordinates": [-82.0534, 33.8534]}},

    {"type": "Feature", "properties": {"name": "Google Douglas County", "operator": "Google", "capacity": 800, "region": "georgia", "status": "operational", "year": 2021}, "geometry": {"type": "Point", "coordinates": [-84.7477, 33.7515]}},
    {"type": "Feature", "properties": {"name": "Google Monroe County", "operator": "Google", "capacity": 1500, "region": "georgia", "status": "announced", "year": 2028}, "geometry": {"type": "Point", "coordinates": [-83.9901, 33.0123]}},
    {"type": "Feature", "properties": {"name": "DC BLOX Atlanta East Conyers", "operator": "DC BLOX", "capacity": 200, "region": "georgia", "status": "construction", "year": 2026}, "geometry": {"type": "Point", "coordinates": [-84.0180, 33.6676]}},
    {"type": "Feature", "properties": {"name": "xAI Atlanta", "operator": "xAI", "capacity": 1000, "region": "georgia", "status": "announced", "year": 2029}, "geometry": {"type": "Point", "coordinates": [-84.1234, 33.9234]}},
    {"type": "Feature", "properties": {"name": "Microsoft Atlanta Region", "operator": "Microsoft", "capacity": 900, "region": "georgia", "status": "announced", "year": 2028}, "geometry": {"type": "Point", "coordinates": [-84.5534, 33.6534]}},
    {"type": "Feature", "properties": {"name": "Georgia Power AI Hub 1", "operator": "Multiple", "capacity": 1600, "region": "georgia", "status": "anticipated", "year": 2029}, "geometry": {"type": "Point", "coordinates": [-84.0823, 33.5823]}},
    {"type": "Feature", "properties": {"name": "Georgia Power AI Hub 2", "operator": "Multiple", "capacity": 2000, "region": "georgia", "status": "anticipated", "year": 2031}, "geometry": {"type": "Point", "coordinates": [-84.6234, 33.7234]}},
    {"type": "Feature", "properties": {"name": "GA AI Mega Campus 2033", "operator": "Multiple", "capacity": 2400, "region": "georgia", "status": "anticipated", "year": 2033}, "geometry": {"type": "Point", "coordinates": [-84.2534, 33.8923]}},
    {"type": "Feature", "properties": {"name": "GA AI Mega Campus 2035", "operator": "Multiple", "capacity": 2800, "region": "georgia", "status": "anticipated", "year": 2035}, "geometry": {"type": "Point", "coordinates": [-84.4012, 33.6123]}},

    {"type": "Feature", "properties": {"name": "DC BLOX Montgomery", "operator": "DC BLOX", "capacity": 40, "region": "alabama", "status": "operational", "year": 2021}, "geometry": {"type": "Point", "coordinates": [-86.2999, 32.3668]}},
    {"type": "Feature", "properties": {"name": "DC BLOX Huntsville", "operator": "DC BLOX", "capacity": 50, "region": "alabama", "status": "operational", "year": 2022}, "geometry": {"type": "Point", "coordinates": [-86.5861, 34.7304]}},
    {"type": "Feature", "properties": {"name": "DC BLOX Birmingham", "operator": "DC BLOX", "capacity": 60, "region": "alabama", "status": "operational", "year": 2023}, "geometry": {"type": "Point", "coordinates": [-86.8025, 33.5207]}},
    {"type": "Feature", "properties": {"name": "Alabama TVA AI Hub 1", "operator": "Multiple", "capacity": 600, "region": "alabama", "status": "anticipated", "year": 2029}, "geometry": {"type": "Point", "coordinates": [-86.7534, 34.6823]}},
    {"type": "Feature", "properties": {"name": "Alabama TVA AI Hub 2", "operator": "Multiple", "capacity": 800, "region": "alabama", "status": "anticipated", "year": 2031}, "geometry": {"type": "Point", "coordinates": [-86.4234, 33.5534]}},
    {"type": "Feature", "properties": {"name": "Alabama AI Campus 2033", "operator": "Multiple", "capacity": 1000, "region": "alabama", "status": "anticipated", "year": 2033}, "geometry": {"type": "Point", "coordinates": [-86.6012, 34.8234]}},

    {"type": "Feature", "properties": {"name": "Amazon Mississippi Site 1", "operator": "Amazon", "capacity": 1500, "region": "mississippi", "status": "announced", "year": 2028}, "geometry": {"type": "Point", "coordinates": [-90.1848, 32.2988]}},
    {"type": "Feature", "properties": {"name": "Amazon Mississippi Site 2", "operator": "Amazon", "capacity": 1500, "region": "mississippi", "status": "announced", "year": 2029}, "geometry": {"type": "Point", "coordinates": [-89.5423, 33.4523]}},
    {"type": "Feature", "properties": {"name": "Mississippi AI Hub 1", "operator": "Multiple", "capacity": 800, "region": "mississippi", "status": "anticipated", "year": 2030}, "geometry": {"type": "Point", "coordinates": [-90.0534, 32.3534]}},
    {"type": "Feature", "properties": {"name": "Mississippi AI Hub 2", "operator": "Multiple", "capacity": 1000, "region": "mississippi", "status": "anticipated", "year": 2032}, "geometry": {"type": "Point", "coordinates": [-89.7823, 33.5123]}},

    {"type": "Feature", "properties": {"name": "AVAIO Leo Data Hub Little Rock", "operator": "AVAIO", "capacity": 500, "region": "arkansas", "status": "construction", "year": 2026}, "geometry": {"type": "Point", "coordinates": [-92.2896, 34.7465]}},
    {"type": "Feature", "properties": {"name": "Google West Memphis", "operator": "Google", "capacity": 1200, "region": "arkansas", "status": "construction", "year": 2027}, "geometry": {"type": "Point", "coordinates": [-90.1848, 35.1465]}},
    {"type": "Feature", "properties": {"name": "Serverfarm Clarksville", "operator": "Serverfarm", "capacity": 600, "region": "arkansas", "status": "announced", "year": 2028}, "geometry": {"type": "Point", "coordinates": [-93.4616, 35.4715]}},
    {"type": "Feature", "properties": {"name": "Arkansas AI Corridor 1", "operator": "Multiple", "capacity": 900, "region": "arkansas", "status": "anticipated", "year": 2030}, "geometry": {"type": "Point", "coordinates": [-92.4234, 34.8123]}},
    {"type": "Feature", "properties": {"name": "Arkansas AI Corridor 2", "operator": "Multiple", "capacity": 1100, "region": "arkansas", "status": "anticipated", "year": 2032}, "geometry": {"type": "Point", "coordinates": [-91.1534, 34.9534]}},
    {"type": "Feature", "properties": {"name": "AR AI Campus 2034", "operator": "Multiple", "capacity": 1300, "region": "arkansas", "status": "anticipated", "year": 2034}, "geometry": {"type": "Point", "coordinates": [-92.1823, 34.6823]}},

    {"type": "Feature", "properties": {"name": "Stargate Saline Township", "operator": "OpenAI/Oracle", "capacity": 1400, "region": "michigan", "status": "announced", "year": 2028}, "geometry": {"type": "Point", "coordinates": [-83.7823, 42.1679]}},
    {"type": "Feature", "properties": {"name": "Project Flex Lyon Township", "operator": "Alphabet", "capacity": 1200, "region": "michigan", "status": "announced", "year": 2029}, "geometry": {"type": "Point", "coordinates": [-83.6334, 42.4623]}},
    {"type": "Feature", "properties": {"name": "Project Cannoli Van Buren", "operator": "Undisclosed", "capacity": 1000, "region": "michigan", "status": "announced", "year": 2028}, "geometry": {"type": "Point", "coordinates": [-83.5023, 42.2234]}},
    {"type": "Feature", "properties": {"name": "Metrobloks Southfield", "operator": "Metrobloks", "capacity": 100, "region": "michigan", "status": "construction", "year": 2026}, "geometry": {"type": "Point", "coordinates": [-83.2219, 42.4734]}},
    {"type": "Feature", "properties": {"name": "Microsoft Grand Rapids", "operator": "Microsoft", "capacity": 600, "region": "michigan", "status": "announced", "year": 2028}, "geometry": {"type": "Point", "coordinates": [-85.6681, 42.9634]}},
    {"type": "Feature", "properties": {"name": "Microsoft Lowell Township", "operator": "Microsoft", "capacity": 500, "region": "michigan", "status": "announced", "year": 2029}, "geometry": {"type": "Point", "coordinates": [-85.3412, 42.9312]}},
    {"type": "Feature", "properties": {"name": "Hyperscale Data Inc Michigan", "operator": "Hyperscale Data", "capacity": 340, "region": "michigan", "status": "announced", "year": 2028}, "geometry": {"type": "Point", "coordinates": [-84.5534, 42.7323]}},
    {"type": "Feature", "properties": {"name": "Michigan AI Corridor 1", "operator": "Multiple", "capacity": 1600, "region": "michigan", "status": "anticipated", "year": 2030}, "geometry": {"type": "Point", "coordinates": [-83.7012, 42.3534]}},
    {"type": "Feature", "properties": {"name": "Michigan AI Corridor 2", "operator": "Multiple", "capacity": 2000, "region": "michigan", "status": "anticipated", "year": 2032}, "geometry": {"type": "Point", "coordinates": [-84.2134, 42.5823]}},
    {"type": "Feature", "properties": {"name": "MI AI Mega Campus 2034", "operator": "Multiple", "capacity": 2400, "region": "michigan", "status": "anticipated", "year": 2034}, "geometry": {"type": "Point", "coordinates": [-83.8534, 42.2123]}},

    {"type": "Feature", "properties": {"name": "Meta Richland Parish", "operator": "Meta", "capacity": 2000, "region": "louisiana", "status": "construction", "year": 2027}, "geometry": {"type": "Point", "coordinates": [-91.7265, 32.4141]}},
    {"type": "Feature", "properties": {"name": "Louisiana AI Hub 1", "operator": "Multiple", "capacity": 1000, "region": "louisiana", "status": "anticipated", "year": 2030}, "geometry": {"type": "Point", "coordinates": [-91.1534, 30.4507]}},
    {"type": "Feature", "properties": {"name": "Louisiana AI Hub 2", "operator": "Multiple", "capacity": 1200, "region": "louisiana", "status": "anticipated", "year": 2032}, "geometry": {"type": "Point", "coordinates": [-90.0715, 29.9511]}},
    {"type": "Feature", "properties": {"name": "LA AI Corridor 2034", "operator": "Multiple", "capacity": 1500, "region": "louisiana", "status": "anticipated", "year": 2034}, "geometry": {"type": "Point", "coordinates": [-91.8234, 32.5234]}}
  ]
}
